,City,Lat,lng,Max Temp,Humidity,Cloudiness,Wind Speed,Country,Date
0,rikitea,-23.12,-134.97,69.1,92,100,29.66,PF,1573511011
1,ponta do sol,-20.63,-46.0,72.37,77,84,11.18,BR,1573511012
2,clyde river,70.47,-68.59,14.0,92,90,29.97,CA,1573511012
3,ivybridge,50.39,-3.92,44.01,87,20,6.93,GB,1573511012
4,georgetown,6.8,-58.16,84.2,79,75,6.93,GY,1573510889
5,jamestown,-33.21,138.6,48.85,70,36,16.04,AU,1573511013
6,albany,42.65,-73.75,43.0,74,90,3.53,US,1573510828
7,hermanus,-34.42,19.24,64.0,95,100,3.0,ZA,1573511013
8,deputatskiy,69.3,139.9,-0.13,91,99,1.21,RU,1573511014
9,cape town,-33.93,18.42,64.0,93,75,5.82,ZA,1573510971
10,castro,-42.48,-73.76,62.6,72,29,8.05,CL,1573511014
11,khatanga,71.98,102.47,1.65,97,100,2.24,RU,1573511014
12,chuy,-33.69,-53.46,64.72,73,32,13.89,UY,1573511014
13,kapaa,22.08,-159.32,82.4,74,1,9.17,US,1573511015
14,ushuaia,-54.81,-68.31,51.8,62,20,20.8,AR,1573511015
15,kiunga,-6.12,141.3,72.1,99,100,1.7,PG,1573511015
16,hilo,19.71,-155.08,87.8,52,1,10.29,US,1573510804
17,east london,-33.02,27.91,69.17,83,100,27.65,ZA,1573511016
18,severo-kurilsk,50.68,156.12,30.18,86,99,4.34,RU,1573511016
19,atuona,-9.8,-139.03,80.2,64,55,5.91,PF,1573511016
20,zhezkazgan,47.8,67.71,27.19,26,12,6.15,KZ,1573511016
21,bredasdorp,-34.53,20.04,64.0,88,100,14.99,ZA,1573511016
22,punta arenas,-53.16,-70.91,51.8,71,3,8.05,CL,1573511017
23,paita,-5.09,-81.11,62.6,100,16,11.41,PE,1573511017
24,galesong,-5.32,119.37,77.0,88,20,4.7,ID,1573511017
25,aklavik,68.22,-135.01,24.8,85,90,11.41,CA,1573511017
26,la ronge,55.1,-105.3,15.8,47,5,10.29,CA,1573511018
27,saint-philippe,45.36,-73.48,24.01,85,90,6.93,CA,1573511018
28,tuktoyaktuk,69.44,-133.03,15.8,78,90,19.46,CA,1573511018
29,vaini,15.34,74.49,66.4,82,0,4.41,IN,1573511018
30,port augusta,-32.49,137.76,59.0,62,75,17.22,AU,1573511019
31,yellowknife,62.45,-114.38,12.99,71,75,5.82,CA,1573510953
32,dingle,11.0,122.67,72.64,94,95,4.68,PH,1573511019
33,bambous virieux,-20.34,57.76,75.2,94,40,3.36,MU,1573511019
34,kulhudhuffushi,6.62,73.07,82.58,67,100,2.42,MV,1573511019
35,new norfolk,-42.78,147.06,55.4,47,40,20.8,AU,1573511020
36,qasigiannguit,68.82,-51.19,34.95,51,100,13.8,GL,1573511020
37,joensuu,62.6,29.76,35.01,98,90,9.17,FI,1573511020
38,san cristobal,14.68,-86.92,79.16,63,57,3.58,HN,1573511020
39,victoria,5.28,115.24,82.0,83,75,4.7,BN,1573510830
40,ayacucho,-13.16,-74.23,66.2,37,75,23.04,PE,1573510906
41,hualmay,-11.1,-77.61,70.03,67,83,8.39,PE,1573511021
42,qaqortoq,60.72,-46.03,32.0,76,66,12.75,GL,1573511021
43,kavieng,-2.57,150.8,78.67,83,100,3.38,PG,1573511022
44,touros,-5.2,-35.46,78.8,78,20,8.05,BR,1573511022
45,mayo,63.59,-135.9,-4.01,76,90,3.36,CA,1573511022
46,qaanaaq,77.48,-69.36,5.47,54,0,4.0,GL,1573511022
47,ribeira grande,38.52,-28.7,60.8,87,40,4.7,PT,1573511022
48,kahta,37.78,38.62,51.8,34,100,6.93,TR,1573511023
49,shiozawa,37.03,138.85,55.99,87,100,14.36,JP,1573511023
50,egvekinot,66.32,-179.17,21.61,94,100,12.12,RU,1573510933
51,kamenka,48.03,28.7,37.0,90,46,5.91,MD,1573511023
52,lorengau,-2.02,147.27,80.96,77,100,5.7,PG,1573511024
53,airai,-8.93,125.41,68.09,31,0,4.83,TL,1573511025
54,hasaki,35.73,140.83,50.0,93,20,8.05,JP,1573511025
55,isangel,-19.55,169.27,78.8,54,40,12.75,VU,1573511025
56,muroto,33.37,134.14,48.2,81,20,4.7,JP,1573511025
57,chokurdakh,70.62,147.9,4.23,91,100,2.75,RU,1573511025
58,austintown,41.1,-80.76,44.6,86,90,10.29,US,1573511026
59,busselton,-33.64,115.35,57.99,43,0,15.68,AU,1573511026
60,cherskiy,68.75,161.3,28.22,72,100,3.49,RU,1573511026
61,port alfred,-33.59,26.89,62.01,97,100,10.0,ZA,1573511027
62,zhanaozen,43.35,52.85,45.39,34,0,14.94,KZ,1573511027
63,mataura,-46.19,168.86,51.03,54,5,3.98,NZ,1573511027
64,ilulissat,69.22,-51.1,34.95,51,100,13.8,GL,1573511028
65,souillac,45.6,-0.6,42.8,93,100,2.24,FR,1573511028
66,san vicente,-0.59,-80.41,77.0,78,20,13.87,EC,1573511028
67,pevek,69.7,170.27,12.7,86,100,2.21,RU,1573511028
68,kodiak,39.95,-94.76,21.2,53,1,24.16,US,1573511029
69,khani,41.96,42.96,44.6,81,33,8.05,GE,1573511029
70,barrow,-38.31,-60.23,75.52,37,98,10.07,AR,1573511029
71,saint-pierre,48.95,4.24,41.0,93,40,11.41,FR,1573511029
72,suez,29.97,32.54,75.33,35,0,9.15,EG,1573511029
73,arraial do cabo,-22.97,-42.02,71.6,100,90,4.7,BR,1573511030
74,san carlos de bariloche,-41.13,-71.31,71.6,30,20,21.92,AR,1573511030
75,karaton,-6.34,106.1,78.8,83,40,3.36,ID,1573511030
76,codrington,-28.95,153.24,77.0,60,0,2.24,AU,1573511030
77,vao,59.1,26.19,34.92,89,92,6.42,EE,1573511030
78,moerai,-22.43,-151.33,72.9,79,14,21.5,PF,1573511031
79,maralal,1.1,36.7,66.47,75,100,18.34,KE,1573511031
80,basoko,1.23,23.61,70.59,98,100,3.91,CD,1573511031
81,cidreira,-30.17,-50.22,69.26,82,80,23.0,BR,1573511032
82,hithadhoo,-0.6,73.08,81.84,78,64,11.74,MV,1573511032
83,thompson,55.74,-97.86,-0.41,64,20,6.93,CA,1573511032
84,yendi,9.45,0.0,84.24,40,100,1.59,GH,1573511032
85,holme,56.11,10.17,41.0,86,100,10.29,DK,1573511033
86,darhan,49.49,105.92,9.91,74,100,17.65,MN,1573511033
87,nabire,-3.36,135.5,70.86,79,98,2.24,ID,1573511033
88,ambon,47.55,-2.56,52.0,87,84,4.7,FR,1573511033
89,port blair,11.67,92.75,81.7,69,84,5.77,IN,1573511034
90,port elizabeth,39.31,-74.98,61.0,66,1,3.31,US,1573511034
91,bluff,-23.58,149.07,70.16,73,0,5.84,AU,1573511034
92,san miguel,-34.54,-58.72,77.0,73,76,11.41,AR,1573511034
93,tianpeng,28.88,112.34,67.35,39,100,2.3,CN,1573511035
94,lebu,8.96,38.73,51.51,70,34,2.93,ET,1573511035
95,severnoye,54.09,52.54,29.88,97,96,6.87,RU,1573511035
96,nhulunbuy,-12.18,136.78,82.4,74,40,11.41,AU,1573511035
97,avera,33.19,-82.53,69.8,52,1,7.31,US,1573511035
98,college,64.86,-147.8,25.0,73,90,2.71,US,1573511036
99,bara,10.41,10.6,82.54,38,59,2.08,NG,1573511036
100,anadyr,64.73,177.51,33.8,80,75,13.42,RU,1573511036
101,carnarvon,-30.97,22.13,62.71,30,0,13.96,ZA,1573511036
102,saskylakh,71.97,114.09,-6.53,94,100,5.21,RU,1573511037
103,butaritari,3.07,172.79,77.14,84,100,2.93,KI,1573511037
104,hobart,-42.88,147.33,55.4,47,40,20.8,AU,1573510828
105,tomatlan,19.93,-105.25,86.32,56,100,5.06,MX,1573511038
106,ambilobe,-13.19,49.05,74.03,75,100,4.81,MG,1573511038
107,pascagoula,30.37,-88.56,73.4,78,90,5.82,US,1573510827
108,mareeba,-16.99,145.42,80.01,57,20,13.87,AU,1573511038
109,komsomolskiy,67.55,63.78,-6.69,93,35,6.06,RU,1573511039
110,antalaha,-14.9,50.28,76.84,82,99,12.86,MG,1573511039
111,zirandaro,18.45,-100.98,92.7,48,13,0.54,MX,1573511040
112,serik,36.92,31.1,62.6,45,0,10.29,TR,1573511040
113,port macquarie,-31.43,152.91,72.0,77,90,6.93,AU,1573511040
114,fairbanks,64.84,-147.72,25.0,73,90,2.91,US,1573511026
115,yamada,36.58,137.08,54.0,93,75,3.36,JP,1573511041
116,tecoanapa,16.99,-99.26,87.8,74,40,4.7,MX,1573511041
117,tromso,69.65,18.96,17.6,78,87,17.22,NO,1573511041
118,victoria point,-27.58,153.3,79.0,57,20,12.75,AU,1573511041
119,esperance,-33.86,121.89,53.6,76,90,3.36,AU,1573511042
120,sur,22.57,59.53,75.87,34,0,14.88,OM,1573511042
121,geraldton,49.72,-86.95,3.2,59,75,6.93,CA,1573511042
122,padang,-0.92,100.36,66.67,95,100,1.19,ID,1573511042
123,nsunga,-1.13,31.39,69.8,88,20,3.13,TZ,1573511043
124,invermere,50.51,-116.03,24.01,73,100,4.0,CA,1573511043
125,hun,50.34,4.87,39.99,86,87,12.75,BE,1573511043
126,beringovskiy,63.05,179.32,34.48,98,100,21.92,RU,1573511044
127,atar,20.52,-13.05,72.25,20,0,8.63,MR,1573511044
128,portland,43.66,-70.25,37.4,86,90,12.75,US,1573511044
129,katherine,-14.47,132.26,84.2,62,46,10.29,AU,1573511045
130,harper,30.3,-99.24,37.4,64,90,17.22,US,1573511045
131,pangody,65.85,74.49,3.04,95,100,13.65,RU,1573511045
132,lavrentiya,65.58,-170.99,31.77,88,100,14.76,RU,1573511046
133,puerto ayora,-0.74,-90.35,78.8,61,0,18.34,EC,1573511046
134,faya,18.39,42.45,60.8,58,0,6.96,SA,1573511046
135,tiksi,71.64,128.87,-4.29,90,100,5.26,RU,1573511047
136,north bend,43.41,-124.22,64.0,72,1,6.93,US,1573511047
137,mar del plata,-46.43,-67.52,63.0,52,0,5.95,AR,1573511047
138,okhotsk,59.36,143.24,3.6,74,7,9.71,RU,1573511047
139,thinadhoo,0.53,72.93,82.35,76,4,9.42,MV,1573511047
140,sarangani,5.4,125.46,83.35,75,100,7.47,PH,1573511048
141,paamiut,61.99,-49.67,31.89,84,98,13.62,GL,1573511048
142,faanui,-16.48,-151.75,78.96,81,40,17.2,PF,1573511048
143,san patricio,-26.98,-56.83,83.79,55,8,5.28,PY,1573511049
144,richards bay,-28.77,32.06,71.53,91,100,21.05,ZA,1573511049
145,porbandar,21.64,69.61,80.46,62,0,4.76,IN,1573510848
146,kirensk,57.78,108.12,-3.97,85,100,7.36,RU,1573511049
147,norman wells,65.28,-126.83,17.6,72,75,16.11,CA,1573510906
148,saint george,39.45,22.34,57.2,87,75,1.7,GR,1573511050
149,nikolskoye,59.7,30.79,39.0,93,90,15.66,RU,1573511050
150,goulburn,-34.75,149.72,75.0,21,0,5.01,AU,1573511050
151,half moon bay,37.46,-122.43,82.0,43,1,4.7,US,1573511050
152,pong,4.23,10.63,73.8,96,100,3.02,CM,1573511051
153,jijiga,9.35,42.8,60.12,67,0,9.75,ET,1573511051
154,tabou,4.42,-7.36,77.52,87,100,3.22,CI,1573511051
155,shenjiamen,29.96,122.3,66.54,55,0,8.59,CN,1573511052
156,naze,5.43,7.07,77.0,94,75,3.96,NG,1573511052
157,avarua,-21.21,-159.78,78.8,74,4,14.99,CK,1573511052
158,concordia,-31.4,-58.02,78.01,53,100,8.01,AR,1573510986
159,tadine,-21.55,167.88,73.87,61,5,9.73,NC,1573511053
160,at-bashi,41.17,75.81,10.27,39,0,5.44,KG,1573511053
161,jalu,29.03,21.55,76.71,22,100,20.2,LY,1573511053
162,yerbogachen,61.28,108.01,-17.31,95,91,7.78,RU,1573511054
163,kazerun,29.62,51.65,60.66,23,0,1.66,IR,1573511054
164,ampanihy,-24.69,44.75,68.32,82,95,14.2,MG,1573511054
165,laguna,16.17,-88.94,84.2,74,75,4.7,BZ,1573511054
166,katsuura,33.93,134.5,59.0,72,20,4.7,JP,1573511055
167,tyup,42.73,78.36,19.71,46,0,8.72,KG,1573511055
168,bambanglipuro,-7.95,110.28,73.9,89,57,3.31,ID,1573511055
169,mount gambier,-37.83,140.78,53.6,62,75,17.22,AU,1573511055
170,guerrero negro,27.97,-114.04,73.42,50,0,11.54,MX,1573511055
171,alice springs,-23.7,133.88,80.6,8,1,8.05,AU,1573511056
172,hervey bay,-25.3,152.85,78.01,65,90,11.41,AU,1573511056
173,waddan,29.16,16.14,66.15,45,100,15.32,LY,1573511056
174,leningradskiy,69.38,178.42,24.15,96,99,5.91,RU,1573511057
175,rantepao,-2.97,119.9,65.14,97,100,2.13,ID,1573511057
176,presidencia roque saenz pena,-26.79,-60.44,90.52,33,46,8.12,AR,1573511057
177,isla vista,34.41,-119.86,78.8,26,1,5.82,US,1573511057
178,evensk,61.92,159.24,26.26,95,100,3.67,RU,1573511058
179,christchurch,-43.53,172.64,55.4,58,99,11.41,NZ,1573511058
180,ozernovskiy,51.5,156.52,33.96,71,92,3.91,RU,1573511058
181,buala,-8.15,159.59,80.58,82,33,10.31,SB,1573511058
182,puerto ayacucho,5.66,-67.63,86.0,70,40,2.24,CO,1573511059
183,aitape,-3.15,142.36,80.02,73,100,6.35,PG,1573511059
184,uglovskoye,51.36,80.19,12.92,78,56,11.39,RU,1573511059
185,tuatapere,-46.13,167.69,53.06,43,63,1.99,NZ,1573511060
186,sorland,67.67,12.69,30.2,68,40,11.41,NO,1573511060
187,kabare,-1.65,29.38,53.44,93,100,1.48,RW,1573511060
188,kwinana,-32.25,115.77,59.0,54,0,20.8,AU,1573511060
189,takoradi,4.89,-1.75,81.12,85,100,12.93,GH,1573511061
190,inhambane,-23.87,35.38,75.34,80,26,15.57,MZ,1573511061
191,griffith,-34.29,146.06,78.8,15,33,23.04,AU,1573511061
192,santa luzia,-19.77,-43.85,86.0,47,75,13.87,BR,1573510771
193,umm kaddadah,13.6,26.69,76.33,12,61,8.3,SD,1573511061
194,puerto del rosario,28.5,-13.86,69.8,73,40,19.46,ES,1573511062
195,grindavik,63.84,-22.43,37.4,93,90,9.17,IS,1573511062
196,guilin,25.28,110.29,53.6,100,40,0.29,CN,1573511062
197,nishihara,35.74,139.53,57.99,87,1,3.36,JP,1573511062
198,pimenta bueno,-11.68,-61.19,78.44,91,99,3.27,BR,1573511063
199,torbay,47.66,-52.73,48.0,87,90,25.28,CA,1573511063
200,zhigansk,66.77,123.37,-23.77,88,39,6.64,RU,1573511063
201,tobane,-21.91,28.04,75.04,69,96,1.25,BW,1573511063
202,riyadh,24.63,46.72,66.2,55,79,2.24,SA,1573510895
203,basco,40.33,-91.2,21.99,67,90,23.04,US,1573511064
204,north las vegas,36.2,-115.11,80.01,11,1,5.82,US,1573510906
205,yungay,-9.14,-77.74,46.96,81,79,2.19,PE,1573511064
206,novikovo,51.15,37.89,45.32,90,17,8.55,RU,1573511064
207,quimper,48.0,-4.1,48.2,93,100,9.17,FR,1573511064
208,borogontsy,62.67,131.17,-19.31,98,100,4.52,RU,1573511065
209,mabaruma,8.2,-59.78,80.06,91,90,3.27,GY,1573511065
210,rocha,-34.48,-54.34,62.4,76,100,12.62,UY,1573511006
211,marzuq,14.4,46.47,66.22,76,0,2.04,YE,1573511065
212,margate,-43.03,147.26,55.4,47,40,20.8,AU,1573511066
213,jiazi,19.61,110.49,75.2,88,75,11.18,CN,1573511066
214,pochutla,15.74,-96.47,87.8,66,40,9.17,MX,1573511066
215,sao filipe,14.9,-24.5,75.25,78,98,18.92,CV,1573511066
216,provideniya,64.42,-173.23,35.6,98,90,15.66,RU,1573511066
217,lisakovsk,52.55,62.49,29.34,87,91,10.96,KZ,1573511067
218,saint-louis,16.03,-16.5,77.0,65,33,6.93,SN,1573511067
219,dikson,73.51,80.55,5.83,96,97,5.26,RU,1573511067
220,palpa,-14.53,-75.19,70.84,50,83,10.76,PE,1573511068
221,vredendal,-31.68,18.49,61.25,78,0,5.84,ZA,1573511068
222,hounde,11.5,-3.52,88.12,31,86,2.75,BF,1573511068
223,wanaka,-44.7,169.14,45.37,56,0,0.63,NZ,1573511068
224,carutapera,-1.2,-46.02,81.88,77,0,16.91,BR,1573511069
225,tazovskiy,67.47,78.7,-3.38,85,100,7.47,RU,1573511069
226,bethel,60.79,-161.76,39.2,80,90,8.05,US,1573511069
227,sembakung,3.82,117.25,78.8,94,75,4.32,ID,1573511069
228,camacha,33.08,-16.33,68.0,64,75,18.34,PT,1573511070
229,marawi,8.0,124.29,73.0,94,100,5.99,PH,1573511070
230,bama,24.14,107.25,60.33,80,67,4.38,CN,1573511070
231,sibu,2.29,111.83,77.0,100,75,2.21,MY,1573511070
232,kerewan,13.49,-16.09,73.4,88,60,5.82,GM,1573511071
233,poum,41.28,20.71,41.5,80,45,5.32,MK,1573511071
234,cumpas,30.0,-109.78,69.46,51,51,5.64,MX,1573511071
235,tombouctou,16.77,-3.01,78.44,8,33,13.42,ML,1573511071
236,saint-francois,46.42,3.91,42.01,86,75,2.24,FR,1573511072
237,namatanai,-3.66,152.44,80.91,77,100,2.95,PG,1573511072
238,bathsheba,13.22,-59.52,82.4,74,20,14.99,BB,1573511072
239,manono,-7.3,27.4,71.96,82,53,3.38,CD,1573511072
240,los llanos de aridane,28.66,-17.92,69.8,73,90,18.34,ES,1573511073
241,namibe,-15.19,12.15,72.68,77,5,7.94,AO,1573511073
242,gairo,-6.14,36.87,65.05,96,3,2.71,TZ,1573511073
243,katobu,-4.94,122.53,74.44,92,1,2.55,ID,1573511073
244,iisaku,59.1,27.31,37.63,85,92,10.18,EE,1573511073
245,gillette,44.29,-105.5,25.0,62,1,4.7,US,1573511023
246,broome,52.47,1.45,43.0,81,100,16.11,GB,1573511074
247,usak,38.67,29.41,62.01,86,23,3.0,TR,1573511074
248,oussouye,12.49,-16.54,77.0,88,100,2.24,SN,1573511074
249,cururupu,-1.82,-44.87,81.1,68,29,5.35,BR,1573511075
250,dawei,14.07,98.19,78.58,81,2,6.69,MM,1573511075
251,fortuna,40.6,-124.16,73.99,68,20,12.75,US,1573510797
252,virginia beach,36.85,-75.98,64.0,51,40,10.29,US,1573511051
253,la romana,18.43,-68.97,80.6,83,75,4.7,DO,1573510924
254,saint-joseph,43.56,6.97,53.01,93,100,2.24,FR,1573511076
255,whitecourt,54.14,-115.68,17.6,85,90,4.7,CA,1573511076
256,jacareacanga,-6.22,-57.76,78.8,88,18,2.24,BR,1573511076
257,lashio,22.93,97.75,60.53,98,1,1.57,MM,1573511076
258,payo,-3.75,103.64,67.86,94,100,3.22,ID,1573511077
259,vardo,39.62,-77.74,64.0,39,1,10.29,US,1573511077
260,hambantota,6.12,81.12,77.0,100,75,2.24,LK,1573511077
261,cherdyn,60.4,56.48,33.76,99,100,3.33,RU,1573511077
262,miguel calmon,-11.43,-40.6,77.36,40,67,2.98,BR,1573511078
263,zyryanka,65.73,150.89,-2.24,97,94,5.12,RU,1573511078
264,saint-ambroise,48.56,-71.32,17.01,78,90,2.77,CA,1573511078
265,port hardy,50.7,-127.42,46.4,100,90,20.8,CA,1573511002
266,mikhaylovka,52.96,103.29,5.72,73,8,7.96,RU,1573511079
267,mahebourg,-20.41,57.7,75.2,94,40,3.36,MU,1573510794
268,tura,64.27,100.22,-20.58,94,100,3.53,RU,1573511079
269,vila franca do campo,37.72,-25.43,62.6,82,40,5.82,PT,1573511079
270,jadu,31.95,12.03,52.77,53,100,20.29,LY,1573511080
271,cape coast,5.11,-1.24,82.15,83,98,15.12,GH,1573511080
272,olga,34.11,-118.17,82.0,64,1,8.05,US,1573510844
273,aranos,-24.14,19.11,73.76,32,0,13.24,NA,1573511081
274,bindura,-17.3,31.33,69.1,77,100,5.64,ZW,1573511081
275,viedma,-40.81,-62.99,69.46,58,100,17.76,AR,1573511081
276,abu kamal,34.45,40.92,63.72,33,95,2.28,SY,1573511081
277,kangayam,11.01,77.56,75.2,88,75,5.82,IN,1573511082
278,petatlan,17.52,-101.27,89.6,66,40,6.93,MX,1573511082
279,kurilsk,45.23,147.88,43.77,85,99,16.69,RU,1573511082
280,talnakh,69.49,88.39,3.2,84,75,2.24,RU,1573511083
281,hirtshals,57.59,9.96,42.01,86,100,7.0,DK,1573511083
282,mandan,46.83,-100.89,7.0,71,1,9.17,US,1573511083
283,husavik,50.56,-96.99,9.0,70,67,5.01,CA,1573511084
284,lompoc,34.64,-120.46,75.99,82,1,6.85,US,1573511084
285,wodonga,-36.12,146.89,73.4,16,100,16.11,AU,1573511084
286,eston,51.15,-108.75,14.0,72,75,19.46,CA,1573511084
287,escarcega,18.61,-90.75,88.2,51,84,4.32,MX,1573511085
288,nizhnevartovsk,60.93,76.58,12.2,85,90,13.42,RU,1573511085
289,bam,29.11,58.36,54.36,15,0,12.19,IR,1573511085
290,ahipara,-35.17,173.16,58.98,66,0,25.21,NZ,1573511086
291,nurota,40.56,65.69,32.0,58,0,4.7,UZ,1573511086
292,saldanha,41.42,-6.55,43.84,73,65,3.87,PT,1573511086
293,constitucion,23.99,-104.67,75.2,25,90,3.36,MX,1573511086
294,kishtwar,33.31,75.77,22.96,79,100,7.56,IN,1573511087
295,longyearbyen,78.22,15.63,33.8,69,75,24.16,NO,1573511087
296,ihtiman,42.44,23.81,46.4,87,90,5.82,BG,1573511087
297,abu samrah,35.3,37.18,62.28,31,100,5.91,SY,1573511088
298,ostrovnoy,68.05,39.51,18.05,86,87,7.65,RU,1573511088
299,luganville,-15.51,167.18,80.6,74,75,10.29,VU,1573511088
300,pervomayskoye,57.07,86.23,6.21,81,0,7.05,RU,1573511088
301,chicama,-7.84,-79.15,66.2,77,20,11.41,PE,1573511088
302,kahului,20.89,-156.47,82.99,65,20,13.87,US,1573511089
303,samarai,-10.62,150.67,75.56,84,100,6.69,PG,1573511089
304,islamkot,24.7,70.18,78.76,42,0,5.66,PK,1573511089
305,yerofey pavlovich,53.97,121.97,-6.78,86,0,4.61,RU,1573511089
306,otofuke,43.02,143.2,42.37,96,100,5.46,JP,1573511090
307,kouango,4.99,19.98,73.69,72,100,2.68,CF,1573511090
308,bandarbeyla,9.49,50.81,79.54,71,0,15.57,SO,1573511090
309,praia,-20.25,-43.81,86.0,48,40,10.29,BR,1573511090
310,rovinj,45.08,13.64,57.99,87,40,10.29,HR,1573511091
311,tasiilaq,65.61,-37.64,35.6,80,91,24.16,GL,1573511091
312,vostok,46.45,135.83,25.43,97,91,10.0,RU,1573511091
313,nikolayevka,46.73,38.57,54.37,72,0,4.81,RU,1573511092
314,el retorno,2.33,-72.63,83.59,85,99,2.93,CO,1573511092
315,maryville,35.76,-83.97,62.6,51,90,6.93,US,1573511092
316,barcelona,41.38,2.18,55.0,66,20,10.29,ES,1573510881
317,adrar,27.87,-0.29,60.8,33,100,4.7,DZ,1573511093
318,hobyo,5.35,48.53,78.04,78,68,11.61,SO,1573511093
319,galle,10.08,-12.83,73.74,88,95,1.66,GN,1573511093
320,awjilah,29.14,21.3,76.71,22,100,20.2,LY,1573511093
321,nsanje,-16.92,35.26,76.26,70,0,8.12,MZ,1573511093
322,sitka,37.17,-99.65,25.0,43,100,15.01,US,1573511094
323,salalah,17.01,54.1,77.0,61,0,5.82,OM,1573511094
324,pundaguitan,6.37,126.17,81.48,77,100,4.88,PH,1573511094
325,port-cartier,50.03,-66.88,23.0,57,75,6.93,CA,1573511094
326,rawson,-43.3,-65.11,57.52,77,100,17.25,AR,1573511095
327,port-gentil,-0.72,8.78,80.6,94,40,6.93,GA,1573511095
328,boryslav,49.29,23.42,39.2,93,17,8.95,UA,1573511095
329,sistranda,63.73,8.83,28.0,73,0,12.75,NO,1573511095
330,port lincoln,-34.72,135.86,53.22,60,95,17.13,AU,1573511096
331,lae,-6.72,146.98,66.24,87,100,1.3,PG,1573511096
332,schneverdingen,53.12,9.79,41.0,80,100,8.05,DE,1573511096
333,zhangye,38.94,100.46,36.16,40,100,5.53,CN,1573511097
334,pangnirtung,66.15,-65.72,24.8,73,90,2.24,CA,1573511097
335,san policarpo,12.18,125.51,78.15,83,100,9.22,PH,1573511097
336,akcaabat,41.02,39.57,64.4,48,100,1.12,TR,1573511097
337,comodoro rivadavia,-45.87,-67.48,60.8,67,75,6.93,AR,1573511097
338,sangar,63.92,127.47,-18.28,93,93,7.0,RU,1573511098
339,finschhafen,-6.6,147.85,80.47,70,91,11.7,PG,1573511098
340,poso,-1.4,120.75,67.24,86,31,2.73,ID,1573511098
341,rio das pedras,-22.84,-47.6,73.0,68,75,18.34,BR,1573511098
342,beloha,-25.17,45.06,68.54,80,100,16.98,MG,1573511099
343,praia da vitoria,38.73,-27.07,60.8,93,0,5.26,PT,1573511099
344,severodvinsk,64.56,39.82,21.2,92,90,13.42,RU,1573511099
345,ereymentau,51.62,73.1,20.01,75,79,16.22,KZ,1573511099
346,coihueco,-36.63,-71.83,71.6,60,100,9.17,CL,1573511100
347,inirida,3.87,-67.92,81.86,92,100,1.99,CO,1573511100
348,klaksvik,62.23,-6.59,33.8,70,100,2.24,FO,1573511100
349,ancud,-41.87,-73.83,62.6,72,0,8.05,CL,1573511100
350,cockburn town,21.46,-71.14,82.4,74,40,5.82,TC,1573511100
351,parana,-7.52,-72.89,80.6,83,40,4.7,BR,1573511101
352,sayyan,15.17,44.32,53.6,52,0,3.8,YE,1573511101
353,karratha,-20.74,116.85,78.28,54,0,18.59,AU,1573511101
354,flin flon,54.77,-101.88,8.6,60,40,16.11,CA,1573511102
355,emmett,43.87,-116.5,55.99,26,1,13.87,US,1573511102
356,kenai,60.55,-151.26,37.99,74,1,8.05,US,1573511102
357,cap-haitien,19.76,-72.2,82.4,74,75,9.17,HT,1573511103
358,magadan,59.56,150.8,21.31,66,95,13.69,RU,1573511103
359,intipuca,13.2,-88.05,89.6,59,40,3.36,SV,1573511103
360,luderitz,-26.65,15.16,62.6,93,1,4.7,NA,1573511103
361,kaitangata,-46.28,169.85,57.0,53,0,11.01,NZ,1573511103
362,bereda,43.27,-7.54,48.99,100,20,5.82,ES,1573511104
363,yacuiba,-22.01,-63.68,77.0,83,20,5.28,AR,1573511104
364,vestmannaeyjar,63.44,-20.27,40.44,83,100,9.82,IS,1573511105
365,leh,34.16,77.58,16.95,90,100,2.44,IN,1573511105
366,tongzi,28.78,105.09,63.16,80,100,3.27,CN,1573511105
367,semey,50.41,80.25,14.04,70,44,10.54,KZ,1573511105
368,mazatlan,23.22,-106.42,89.6,38,90,12.75,MX,1573511105
369,barabinsk,55.35,78.35,18.91,53,100,17.98,RU,1573511106
370,paragominas,-3.0,-47.35,86.45,52,71,3.2,BR,1573511106
371,zomin,39.96,68.4,34.81,65,0,1.95,UZ,1573511106
372,la rioja,-29.41,-66.86,76.3,50,100,10.49,AR,1573511107
373,padilla,3.23,-76.31,78.8,65,75,4.7,CO,1573511107
374,dalian,19.86,110.11,75.2,88,75,11.18,CN,1573511107
375,excelsior springs,39.34,-94.23,25.0,45,100,17.22,US,1573511107
376,sept-iles,50.2,-66.38,23.0,57,75,6.93,CA,1573511107
377,upernavik,72.79,-56.15,23.49,65,100,3.69,GL,1573511108
378,kamina,-8.74,25.0,65.5,93,62,4.83,CD,1573511108
379,natal,-5.81,-35.21,80.6,78,20,8.05,BR,1573510938
380,chalus,36.66,51.42,51.8,87,0,2.24,IR,1573511108
381,aasiaat,68.71,-52.87,31.48,63,100,5.21,GL,1573511109
382,popondetta,-8.77,148.24,65.7,94,81,1.52,PG,1573511109
383,nome,30.04,-94.42,75.99,78,90,4.47,US,1573511109
384,uyemskiy,64.47,40.85,21.2,92,90,13.42,RU,1573511109
385,norden,53.59,7.21,43.0,87,90,11.41,DE,1573511110
386,nizwa,22.93,57.53,64.29,28,66,8.72,OM,1573511110
387,sao joao da barra,-21.64,-41.05,73.4,88,90,23.04,BR,1573511110
388,aswan,24.09,32.9,84.2,45,0,8.05,EG,1573511111
389,tessalit,20.2,1.01,66.79,13,0,11.61,ML,1573511111
390,trang,7.56,99.61,75.2,100,20,3.36,TH,1573511111
391,aurad,18.25,77.42,67.68,85,0,3.62,IN,1573511111
392,dno,57.83,29.97,39.65,85,100,6.82,RU,1573511111
393,marfino,56.07,37.56,44.01,100,90,11.18,RU,1573511112
394,stephenville,48.55,-58.59,30.2,63,90,11.41,CA,1573511112
395,lakes entrance,-37.88,147.99,66.0,60,35,7.0,AU,1573511112
396,havre-saint-pierre,50.23,-63.6,19.4,73,1,11.41,CA,1573511112
397,pontiac,42.64,-83.29,30.99,100,90,8.05,US,1573511112
398,hazorasp,41.32,61.08,30.2,68,0,9.17,UZ,1573511113
399,bassano,50.79,-112.47,24.01,66,0,9.82,CA,1573511113
400,tongchuan,34.9,108.95,39.2,100,28,2.24,CN,1573511113
401,pulandian,39.4,121.96,42.8,81,67,2.24,CN,1573511113
402,rosetta,31.4,30.42,73.4,83,0,5.82,EG,1573511114
403,warrnambool,-38.38,142.48,55.0,62,98,11.99,AU,1573511114
404,matara,-3.48,29.48,60.22,86,100,3.22,BI,1573511114
405,lasa,34.92,32.53,69.8,37,0,5.82,CY,1573511114
406,san jeronimo,-13.65,-73.37,58.64,61,75,7.18,PE,1573511114
407,fuyu,47.79,124.46,21.7,32,79,6.58,CN,1573511115
408,caravelas,-17.73,-39.27,75.88,80,0,9.78,BR,1573511115
409,batagay-alyta,67.8,130.41,-4.58,98,97,2.57,RU,1573511115
410,rogovatoye,51.23,38.38,44.35,90,10,8.46,RU,1573511116
411,ucluelet,48.94,-125.55,52.0,100,90,5.82,CA,1573511004
412,kupang,-10.16,123.6,78.8,74,20,8.37,ID,1573511116
413,toktogul,41.87,72.95,25.72,21,0,5.79,KG,1573511116
414,oriximina,-1.77,-55.87,90.61,54,100,2.84,BR,1573511116
415,mlonggo,-6.53,110.7,78.8,78,20,18.77,ID,1573511117
416,burnie,-41.05,145.91,52.0,59,43,14.0,AU,1573511117
417,cabo san lucas,22.89,-109.91,79.0,64,90,5.82,MX,1573511117
418,champasak,14.89,105.88,67.68,97,96,1.95,LA,1573511117
419,srikakulam,18.29,83.89,72.41,84,21,4.68,IN,1573511118
420,richmond,49.16,-123.14,53.01,87,90,4.7,CA,1573511118
421,verkhoyansk,67.55,133.39,-16.62,95,98,1.25,RU,1573511118
422,ron,15.7,75.73,71.47,70,0,7.96,IN,1573511118
423,hami,42.84,93.51,36.86,33,100,6.13,CN,1573511119
424,shwebo,22.57,95.7,72.54,92,53,3.56,MM,1573511119
425,cartagena,37.63,-1.0,60.8,55,99,11.41,ES,1573511119
426,praya,-8.71,116.27,80.6,83,75,4.7,ID,1573511119
427,asadabad,34.78,48.12,26.6,68,0,2.24,IR,1573511119
428,lovington,32.94,-103.35,32.0,50,90,23.04,US,1573511026
429,marsh harbour,26.54,-77.06,77.31,72,41,19.89,BS,1573511120
430,coahuayana,18.62,-100.35,86.83,59,48,2.55,MX,1573511120
431,malkangiri,18.35,81.9,66.54,88,0,2.51,IN,1573511120
432,hirara,24.8,125.28,69.8,68,40,8.05,JP,1573511121
433,taoudenni,22.68,-3.98,69.93,16,0,13.0,ML,1573511121
434,parit buntar,5.13,100.49,78.8,88,75,2.28,MY,1573511121
435,usinsk,66.0,57.56,-3.64,96,2,9.46,RU,1573511121
436,herveo,5.08,-75.18,69.8,100,40,9.17,CO,1573511121
437,rabo de peixe,37.8,-25.58,62.6,82,40,5.82,PT,1573511122
438,kavaratti,10.57,72.64,81.54,72,9,4.61,IN,1573511122
439,pecos,31.42,-103.49,37.4,80,90,5.82,US,1573511122
440,den helder,52.96,4.76,46.4,81,75,17.22,NL,1573511122
441,magnolia,33.27,-93.24,64.4,100,90,9.17,US,1573510904
442,tarpon springs,28.15,-82.76,82.0,51,75,5.37,US,1573511123
443,muros,42.77,-9.06,52.0,93,75,1.12,ES,1573511123
444,oranjemund,-28.55,16.43,60.42,89,1,5.79,ZA,1573511124
445,quelimane,-17.88,36.89,78.8,88,40,6.93,MZ,1573511124
446,shingu,33.72,135.99,60.64,74,0,12.12,JP,1573511124
447,mangan,27.5,88.54,45.95,58,0,4.23,IN,1573511124
448,sola,-3.17,33.8,71.62,66,3,10.18,TZ,1573511124
449,iqaluit,63.75,-68.52,15.8,78,75,14.99,CA,1573511125
450,palmas,-10.18,-48.33,84.2,70,40,5.82,BR,1573511125
451,itarema,-2.92,-39.92,79.41,70,2,13.35,BR,1573511125
452,oktyabrskiy,55.61,37.97,44.01,87,90,8.95,RU,1573511125
453,henties bay,-22.12,14.28,57.99,93,0,5.01,NA,1573511126
454,lusambo,-4.97,23.44,70.47,98,100,3.56,CD,1573511126
455,grand gaube,-20.01,57.66,75.2,94,40,3.36,MU,1573511126
456,buraydah,26.33,43.97,64.4,100,75,6.93,SA,1573511126
457,sao paulo de olivenca,-3.38,-68.87,86.49,64,19,2.64,BR,1573511126
458,kologriv,58.83,44.31,38.32,96,100,8.1,RU,1573511127
459,arlit,18.74,7.39,85.33,15,61,8.48,NE,1573511127
460,jhelum,32.94,73.72,64.89,35,100,1.68,PK,1573511127
461,chiredzi,-21.05,31.67,76.66,69,100,0.6,ZW,1573511128
462,yeppoon,-23.13,150.74,77.0,57,40,10.29,AU,1573511128
463,moranbah,-22.0,148.04,70.2,54,0,3.85,AU,1573511128
464,bulgan,48.81,103.53,1.63,86,100,5.53,MN,1573511129
465,mana,13.03,5.27,85.41,23,94,6.2,NG,1573511129
466,launceston,-41.43,147.14,57.2,47,67,13.87,AU,1573510849
467,taltal,-25.41,-70.49,63.52,66,100,7.31,CL,1573511129
468,ishigaki,24.34,124.16,69.8,68,75,8.05,JP,1573511057
469,kauhajoki,62.43,22.18,27.0,100,90,1.12,FI,1573511130
470,broken hill,-31.97,141.45,62.6,59,0,26.4,AU,1573511130
471,redlands,34.06,-117.19,93.2,29,1,10.29,US,1573511130
472,lima,-12.06,-77.04,68.0,77,40,10.29,PE,1573511070
473,shimoda,34.7,138.93,55.99,72,0,1.01,JP,1573511131
474,whitehorse,60.72,-135.06,10.99,84,75,2.06,CA,1573510911
475,saint-augustin,45.63,-73.98,23.0,85,90,11.41,CA,1573511131
476,piltene,57.23,21.67,33.8,100,4,6.22,LV,1573511131
477,ondjiva,-17.07,15.73,76.87,51,42,6.29,AO,1573511132
478,qarqin,37.41,66.03,50.52,39,0,6.8,AF,1573511132
479,bela,26.23,66.31,73.6,50,20,3.06,PK,1573511132
480,acala,16.55,-92.81,86.0,51,40,3.36,MX,1573511132
481,joura,26.34,77.81,71.1,54,0,1.12,IN,1573511132
482,machaneng,-23.19,27.49,74.73,67,100,10.09,BW,1573511133
483,pacific grove,36.62,-121.92,86.0,59,1,4.7,US,1573511133
484,ciudad bolivar,8.12,-63.55,87.98,58,82,8.1,VE,1573511133
485,inuvik,68.36,-133.71,24.8,85,90,11.41,CA,1573511133
486,pangai,-19.8,-174.35,73.4,88,90,9.17,TO,1573511134
487,nelson bay,-32.72,152.14,80.01,36,0,8.05,AU,1573511134
488,jizan,16.89,42.56,84.2,66,0,4.7,SA,1573511134
489,abha,18.22,42.5,60.8,58,0,1.54,SA,1573511134
490,kosa,32.67,130.82,50.0,100,20,3.36,JP,1573511134
491,goure,13.98,10.27,86.0,16,90,2.28,NE,1573511135
492,pozhva,59.09,56.08,37.27,94,100,11.68,RU,1573511135
493,harer,42.19,-111.17,51.01,17,1,2.73,US,1573511135
494,moose factory,51.26,-80.61,6.8,65,90,3.36,CA,1573511135
495,mae sot,16.71,98.57,66.38,97,61,1.92,MM,1573511136
496,harbin,45.77,126.62,21.2,57,0,4.47,CN,1573511136
497,nuuk,64.17,-51.74,33.8,97,75,8.05,GL,1573511136
498,miraflores,-16.39,-71.52,59.0,67,75,6.93,PE,1573511136
499,tenango,20.53,-100.67,81.0,36,75,34.45,MX,1573511136
500,omboue,-1.57,9.26,74.26,97,100,2.51,GA,1573511137
501,mortara,45.25,8.74,46.4,100,75,8.05,IT,1573511137
502,jawhar,19.91,73.23,73.26,75,14,1.14,IN,1573511137
503,gouyave,12.16,-61.73,82.4,78,20,13.87,GD,1573511138
504,kailua,21.39,-157.74,87.8,69,75,8.05,US,1573511138
505,campoverde,-0.91,-78.62,55.0,81,90,4.7,EC,1573511138
506,chapais,49.78,-74.86,6.8,84,90,3.36,CA,1573511138
507,tezu,27.93,96.16,63.61,97,58,2.37,IN,1573511139
508,marsa matruh,31.35,27.25,68.0,77,0,2.24,EG,1573511139
509,chuguyevka,44.17,133.87,24.13,96,32,4.72,RU,1573511139
510,rakiv lis,51.62,24.92,39.6,91,31,3.69,UA,1573511139
511,byron bay,-28.65,153.62,77.0,61,24,9.17,AU,1573511025
512,lufilufi,-13.87,-171.6,87.8,70,20,9.17,WS,1573511140
513,novyy urengoy,66.08,76.63,-0.87,94,100,13.29,RU,1573511140
514,sao miguel do araguaia,-13.28,-50.16,85.28,55,42,1.41,BR,1573511140
515,hamilton,43.26,-79.87,28.0,92,90,23.04,CA,1573511140
516,mehamn,71.03,27.85,26.6,85,0,12.75,NO,1573511140
517,honiara,-9.43,159.96,80.6,88,20,1.25,SB,1573511141
518,neuquen,-38.95,-68.06,73.4,56,40,3.36,AR,1573511141
519,pisco,-13.71,-76.2,71.6,30,99,13.87,PE,1573511141
520,banda aceh,5.56,95.32,73.47,93,100,2.77,ID,1573511103
521,port said,25.34,30.55,73.0,40,0,6.96,EG,1573511142
522,coihaique,-45.58,-72.07,73.4,38,20,11.41,CL,1573511142
523,solnechnyy,50.72,136.64,23.92,95,100,0.69,RU,1573511142
524,kidal,18.44,1.41,71.98,7,0,15.19,ML,1573511142
525,chumphon,10.5,99.18,69.91,91,0,2.21,TH,1573511143
526,sioux lookout,50.1,-91.92,3.2,64,40,9.17,CA,1573510902
527,wanning,48.64,13.53,37.99,100,75,12.75,AT,1573511144
528,yulara,-25.24,130.99,73.4,31,16,17.22,AU,1573511144
529,constantine,36.36,6.61,37.4,93,75,5.82,DZ,1573511144
530,ponta delgada,37.73,-25.67,62.6,82,40,5.82,PT,1573511144
531,lagoa,37.14,-8.45,60.8,67,20,5.82,PT,1573511145
532,san juan bautista,-26.67,-57.15,84.6,52,95,5.82,PY,1573511145
533,humberto de campos,-2.6,-43.46,79.36,78,0,6.8,BR,1573511145
534,zvishavane,-20.32,30.05,65.82,90,100,4.68,ZW,1573511145
535,roma,41.89,12.48,59.0,87,40,8.05,IT,1573510872
536,alta,69.97,23.27,6.8,84,40,13.87,NO,1573511146
537,ercis,39.03,43.36,32.0,24,100,4.7,TR,1573511146
538,sao sebastiao,-3.15,-58.36,83.84,73,100,3.78,BR,1573511146
539,oranjestad,12.52,-70.03,84.2,79,20,16.11,AW,1573511146
540,cap malheureux,-19.98,57.61,75.2,94,40,3.36,MU,1573511147
541,recco,44.37,9.15,52.0,81,75,10.29,IT,1573511148
542,cuiluan,47.72,128.65,16.83,72,0,4.43,CN,1573511148
543,aksarka,66.56,67.8,4.64,96,100,5.61,RU,1573511148
544,agua branca,-5.89,-42.63,91.6,29,59,5.82,BR,1573511149
